{"type":"FeatureCollection","features":[{"type":"Feature","properties":{"Company":"SYSTECH CORP.","Poverty (%)":2,"Soil Penetration (in/hr)":2,"City":"Paulding","State":"Ohio","Non-white (%)":1, "Kilograms":1, "Kilograms ": 1, "Air Quality Watches":1},"geometry":{"type":"Point","coordinates":[-84.6038675,40.9]}},{"type":"Feature","properties":{"Company":"ENVIRITE INC.","Poverty (%)":2,"Soil Penetration (in/hr)":2,"City":"Canton","State":"Ohio","Non-white (%)":1,"Kilograms":2, "Kilograms ": 2,"Air Quality Watches":1},"geometry":{"type":"Point","coordinates":[-81.369079,40.776016]}},{"type":"Feature","properties":{"Company":"AMG VANADIUM","Poverty (%)":3,"Soil Penetration (in/hr)":3,"City":"Cambridge","State":"Ohio","Non-white (%)":2,"Kilograms":3, "Kilograms ": 3,"Air Quality Watches":2},"geometry":{"type":"Point","coordinates":[-81.5667114,39.9935799]}},{"type":"Feature","properties":{"Company":"ROSS INCINERATION INC.","Poverty (%)":3,"Soil Penetration (in/hr)":3,"City":"Grafton","State":"Ohio","Non-white (%)":2,"Kilograms":2, "Kilograms ": 2, "Air Quality Watches":2},"geometry":{"type":"Point","coordinates":[-82.0347114,41.3217127]}},{"type":"Feature","properties":{"Company":"SPRING GROVE INC.","Poverty (%)":3,"Soil Penetration (in/hr)":3,"City":"Cincinnati","State":"Ohio","Non-white (%)":3,"Kilograms":3, "Kilograms ": 3, "Air Quality Watches":3},"geometry":{"type":"Point","coordinates":[-84.5112216,39.1700858]}},{"type":"Feature","properties":{"Company":"CLEVELAND CORP.","Poverty (%)":1,"Soil Penetration (in/hr)":1,"City":"Cleveland","State":"Ohio","Non-white (%)":1,"Kilograms":1, "Kilograms ": 1,"Air Quality Watches":1},"geometry":{"type":"Point","coordinates":[-81.6717323,41.4816117]}},{"type":"Feature","properties":{"Company":"CLEAN HARBORS INC.","Poverty (%)":2,"Soil Penetration (in/hr)":2,"City":"Hebron","State":"Ohio","Non-white (%)":2,"Kilograms":2, "Kilograms ": 2,"Air Quality Watches":2},"geometry":{"type":"Point","coordinates":[-82.4794617, 40.15]}}]}
